$GPATT,-0.00,p,0.005,r,0.000,y,20170206,s,002300345112333539343233,ID,1,INS,411,01,5,2,G*52
$GNRMC,141450.00,A,3015.17726,N,11955.99100,E,0.48,5.610,021217,0.0,0,A*68
$GNGGA,141450.00,3015.17726,N,11955.99100,E,1,03,16.4,81.30,M,6.700,M,0.00,0000*68
$GNZDA,141450.00,02,12,2017,00,00*78
$GPATT,-0.00,p,0.005,r,0.000,y,20170206,s,002300345112333539343233,ID,1,INS,411,01,5,2,G*52
$GNRMC,141451.00,A,3015.17762,N,11955.99110,E,0.55,5.610,021217,0.0,0,A*64
$GNGGA,141451.00,3015.17762,N,11955.99110,E,1,03,16.4,81.40,M,6.700,M,0.00,0000*6F
$GNZDA,141451.00,02,12,2017,00,00*79
$GPATT,-0.00,p,0.005,r,0.000,y,20170206,s,002300345112333539343233,ID,1,INS,411,01,5,2,G*52
$GNRMC,141452.00,A,3015.17879,N,11955.99139,E,0.88,5.610,021217,0.0,0,A*69
$GNGGA,141452.00,3015.17879,N,11955.99139,E,1,03,16.4,81.50,M,6.700,M,0.00,0000*63
$GNZDA,141452.00,02,12,2017,00,00*7A
$GPATT,-0.00,p,0.005,r,0.000,y,20170206,s,002300345112333539343233,ID,1,INS,411,01,5,2,G*52
$GNRMC,141453.00,A,3015.17935,N,11955.99150,E,0.91,5.610,021217,0.0,0,A*66
$GNGGA,141453.00,3015.17935,N,11955.99150,E,1,03,16.4,81.50,M,6.700,M,0.00,0000*64
$GNZDA,141453.00,02,12,2017,00,00*7B
$GPATT,-0.00,p,0.005,r,0.000,y,20170206,s,002300345112333539343233,ID,1,INS,411,01,5,2,G*52
$GNRMC,141454.00,A,3015.18005,N,11955.99164,E,0.94,5.610,021217,0.0,0,A*66
$GNGGA,141454.00,3015.18005,N,11955.99164,E,1,03,16.4,81.40,M,6.700,M,0.00,0000*60
$GNZDA,141454.00,02,12,2017,00,00*7C
$GPATT,-0.00,p,0.005,r,0.000,y,20170206,s,002300345112333539343233,ID,1,INS,411,01,5,2,G*52
$GNRMC,141455.00,A,3015.18048,N,11955.99174,E,0.93,5.610,021217,0.0,0,A*68
$GNGGA,141455.00,3015.18048,N,11955.99174,E,1,03,16.4,81.40,M,6.700,M,0.00,0000*69
$GNZDA,141455.00,02,12,2017,00,00*7D
$GPATT,-0.00,p,0.005,r,0.000,y,20170206,s,002300345112333539343233,ID,1,INS,411,01,5,2,G*52
$GNRMC,141456.00,A,3015.18014,N,11955.99167,E,0.65,5.610,021217,0.0,0,A*69
$GNGGA,141456.00,3015.18014,N,11955.99167,E,1,03,16.4,81.40,M,6.700,M,0.00,0000*61
$GNZDA,141456.00,02,12,2017,00,00*7E
$GPATT,-0.00,p,0.005,r,0.000,y,20170206,s,002300345112333539343233,ID,1,INS,411,01,5,2,G*52
$GNRMC,141457.00,A,3015.18064,N,11955.99174,E,0.69,5.610,021217,0.0,0,A*61
$GNGGA,141457.00,3015.18064,N,11955.99174,E,1,03,16.4,81.30,M,6.700,M,0.00,0000*62
$GNZDA,141457.00,02,12,2017,00,00*7F
$GPATT,-0.00,p,0.005,r,0.000,y,20170206,s,002300345112333539343233,ID,1,INS,411,01,5,2,G*52
$GNRMC,141458.00,A,3015.18182,N,11955.99204,E,1.04,5.610,021217,0.0,0,A*69
$GNGGA,141458.00,3015.18182,N,11955.99204,E,1,03,16.4,81.30,M,6.700,M,0.00,0000*60
$GNZDA,141458.00,02,12,2017,00,00*70
$GPATT,-0.00,p,0.005,r,0.000,y,20170206,s,002300345112333539343233,ID,1,INS,411,01,5,2,G*52
$GNRMC,141459.00,A,3015.18226,N,11955.99203,E,1.09,5.610,021217,0.0,0,A*6F
$GNGGA,141459.00,3015.18226,N,11955.99203,E,1,03,16.4,81.40,M,6.700,M,0.00,0000*6C
$GNZDA,141459.00,02,12,2017,00,00*71
$GPATT,-0.00,p,0.005,r,0.000,y,20170206,s,002300345112333539343233,ID,1,INS,411,01,5,2,G*52
$GNRMC,141500.00,A,3015.18296,N,11955.99209,E,1.22,5.610,021217,0.0,0,A*6A
$GNGGA,141500.00,3015.18296,N,11955.99209,E,1,03,16.4,81.40,M,6.700,M,0.00,0000*60
$GNZDA,141500.00,02,12,2017,00,00*7C
$GPATT,-0.00,p,0.005,r,0.000,y,20170206,s,002300345112333539343233,ID,1,INS,411,01,5,2,G*52
$GNRMC,141501.00,A,3015.18334,N,11955.99209,E,1.26,5.610,021217,0.0,0,A*66
$GNGGA,141501.00,3015.18334,N,11955.99209,E,1,03,16.4,81.40,M,6.700,M,0.00,0000*68
$GNZDA,141501.00,02,12,2017,00,00*7D
$GPATT,-0.00,p,0.005,r,0.000,y,20170206,s,002300345112333539343233,ID,1,INS,411,01,5,2,G*52
$GNRMC,141502.00,A,3015.18369,N,11955.99220,E,1.27,5.610,021217,0.0,0,A*67
$GNGGA,141502.00,3015.18369,N,11955.99220,E,1,03,16.4,81.30,M,6.700,M,0.00,0000*6F
$GNZDA,141502.00,02,12,2017,00,00*7E
$GPATT,-0.00,p,0.005,r,0.000,y,20170206,s,002300345112333539343233,ID,1,INS,411,01,5,2,G*52
$GNRMC,141503.00,A,3015.18385,N,11955.99221,E,1.25,5.610,021217,0.0,0,A*67
$GNGGA,141503.00,3015.18385,N,11955.99221,E,1,03,16.4,81.40,M,6.700,M,0.00,0000*6A
$GNZDA,141503.00,02,12,2017,00,00*7F
